City_ID,City,Lat,Lng,Max Temp,Humidity,Cloudiness,Wind Speed,Country,Date
0,port-aux-francais,-49.35,70.2167,274.7,66,100,18.07,TF,1716997049
1,puerto natales,-51.7236,-72.4875,276.4,75,20,8.75,CL,1716997049
2,lazaro cardenas,17.9583,-102.2,304.87,48,4,1.48,MX,1716997049
3,grytviken,-54.2811,-36.5092,274.79,91,100,6.02,GS,1716997050
4,paracin,43.8608,21.4078,292.75,81,93,3.08,RS,1716997050
5,pacific grove,36.6177,-121.9166,286.42,87,75,5.14,US,1716997050
6,georgetown,5.4112,100.3354,303.12,80,20,2.06,MY,1716996835
7,bethel,41.3712,-73.414,296.6,59,75,2.06,US,1716997050
8,port alfred,-33.5906,26.891,294.92,58,6,0.92,ZA,1716997051
9,port elizabeth,-33.918,25.5701,298.31,38,0,0.0,ZA,1716997051
10,ribeira grande,38.5167,-28.7,292.47,100,75,4.63,PT,1716997051
11,solleftea,63.1667,17.2667,295.07,33,16,3.89,SE,1716997051
12,banda aceh,5.5577,95.3222,301.72,78,92,6.45,ID,1716997052
13,west island,-12.1568,96.8225,300.14,83,40,7.72,CC,1716997052
14,vilyuysk,63.7553,121.6247,290.93,57,87,2.68,RU,1716997052
15,st. john's,47.5649,-52.7093,285.25,96,100,11.32,CA,1716997045
16,sumbawa besar,-8.5,117.4333,297.16,93,60,1.23,ID,1716997052
17,greeley,40.4233,-104.7091,295.82,59,17,0.89,US,1716996762
18,waitangi,-43.9535,-176.5597,283.28,67,98,7.97,NZ,1716997053
19,cruzeiro do sul,-29.5128,-51.9853,291.2,83,75,0.83,BR,1716997053
20,katsuren-haebaru,26.3369,127.8719,298.16,85,100,0.0,JP,1716997053
21,chibougamau,49.9168,-74.3659,282.94,53,0,5.66,CA,1716997053
22,al ghayzah,16.2079,52.176,303.2,80,95,5.72,YE,1716997054
23,halden,59.1226,11.3871,292.94,65,61,1.52,NO,1716997054
24,talnakh,69.4865,88.3972,271.04,83,66,1.15,RU,1716997054
25,adamstown,-25.066,-130.1015,293.78,74,88,0.67,PN,1716997054
26,kaiapoi,-43.3783,172.6401,278.2,88,23,0.0,NZ,1716997054
27,yellowknife,62.456,-114.3525,290.05,67,20,2.06,CA,1716996853
28,kigoma,-4.8769,29.6267,298.65,66,65,2.65,TZ,1716997055
29,noormarkku,61.5927,21.8685,292.03,68,46,3.09,FI,1716997055
30,opuwo,-18.0607,13.84,298.92,20,0,1.94,NA,1716997055
31,peschiera del garda,45.4378,10.6891,299.29,53,40,1.03,IT,1716997055
32,lhokseumawe,5.1801,97.1507,300.88,84,85,1.0,ID,1716997055
33,thompson,55.7435,-97.8558,289.24,48,20,3.09,CA,1716996874
34,mejit,10.2753,170.8646,300.73,80,100,6.13,MH,1716997056
35,san lawrenz,36.0553,14.204,298.82,82,100,5.85,MT,1716997056
36,saldanha,-33.0117,17.9442,294.18,80,89,7.44,ZA,1716997056
37,margate,51.3813,1.3862,291.97,61,67,1.89,GB,1716997056
38,susuman,62.7833,148.1667,283.7,63,45,3.58,RU,1716997056
39,east london,-33.0153,27.9116,293.67,77,0,1.54,ZA,1716997056
40,atafu village,-8.5421,-172.5159,302.6,71,3,5.12,TK,1716997057
41,kingston,17.997,-76.7936,305.68,62,75,8.75,JM,1716996918
42,roses,42.262,3.1769,300.6,63,98,0.45,ES,1716997057
43,angaur state,6.906,134.13,302.19,77,66,4.72,PW,1716997057
44,port lincoln,-34.7333,135.8667,291.11,67,100,7.57,AU,1716997057
45,olinda,-8.0089,-34.8553,303.0,70,40,3.09,BR,1716997058
46,papatowai,-46.5619,169.4708,281.62,82,79,5.79,NZ,1716997058
47,yuci,37.6803,112.7319,293.01,52,20,1.0,CN,1716997058
48,invercargill,-46.4,168.35,280.94,84,100,2.24,NZ,1716997058
49,khorinsk,52.1657,109.7726,286.38,42,100,0.18,RU,1716997058
50,iqaluit,63.7506,-68.5145,274.0,69,75,2.57,CA,1716997058
51,princeville,45.7668,-61.2985,296.9,81,0,4.63,CA,1716997059
52,salekhard,66.53,66.6019,271.7,70,100,5.81,RU,1716997059
53,afaahiti,-17.75,-149.2833,295.08,77,49,6.68,PF,1716997059
54,puerto ayora,-0.7393,-90.3518,299.13,81,44,3.82,EC,1716996978
55,iskateley,67.6803,53.1512,271.49,77,86,5.36,RU,1716997059
56,anadyr,64.75,177.4833,272.43,100,40,8.0,RU,1716996864
57,prince albert,53.2001,-105.7677,292.12,45,75,7.2,CA,1716997012
58,aripuana,-9.1667,-60.6333,304.02,39,79,1.89,BR,1716997060
59,stawell,-37.05,142.7667,284.81,65,67,6.62,AU,1716997060
60,kayangel,8.0823,134.7173,301.61,82,68,6.48,PW,1716997060
61,punta arenas,-53.15,-70.9167,278.21,87,75,12.86,CL,1716996766
62,bilibino,68.0546,166.4372,269.94,76,100,2.63,RU,1716997060
63,kruisfontein,-34.0033,24.7314,293.09,39,0,2.19,ZA,1716997061
64,namibe,-15.1961,12.1522,297.29,64,1,7.02,AO,1716997061
65,longyearbyen,78.2186,15.6401,277.06,87,75,1.54,SJ,1716997061
66,alencon,48.4333,0.0833,288.43,97,100,3.56,FR,1716997061
67,flying fish cove,-10.4217,105.6791,298.97,88,75,2.57,CX,1716997061
68,badger,64.8,-147.5333,287.49,68,75,1.54,US,1716997061
69,taltal,-25.4,-70.4833,290.46,72,100,2.77,CL,1716997062
70,andratx,39.5755,2.4202,300.9,63,87,4.43,ES,1716997062
71,karratha,-20.7377,116.8463,294.84,71,31,1.96,AU,1716997062
72,zyrya,40.3661,50.2917,294.2,71,19,4.88,AZ,1716997062
73,port mathurin,-19.6833,63.4167,298.36,85,19,8.54,MU,1716997062
74,jamestown,42.097,-79.2353,291.77,85,75,2.06,US,1716996915
75,utrik,11.2278,169.8474,300.64,81,97,5.63,MH,1716997063
76,enewetak,11.3474,162.3373,300.96,80,78,7.19,MH,1716997063
77,hawaiian paradise park,19.5933,-154.9731,294.28,98,100,2.57,US,1716997063
78,papao,-17.75,-149.55,295.97,75,21,7.2,PF,1716997063
79,terrace,54.5163,-128.6035,282.71,93,75,2.57,CA,1716996936
80,la passe,45.5549,-0.8967,290.38,95,100,6.6,FR,1716997064
81,pathardi,19.1667,75.1833,305.49,38,66,9.06,IN,1716997064
82,abadeh,31.1608,52.6506,301.1,9,0,0.0,IR,1716997064
83,la sarre,48.8002,-79.1996,283.27,40,7,4.19,CA,1716997064
84,labrador city,52.9463,-66.9114,274.1,97,100,12.07,CA,1716997064
85,udachny,66.4167,112.4,292.84,39,43,2.92,RU,1716997064
86,vilyuchinsk,52.9306,158.4028,278.29,88,100,3.07,RU,1716997065
87,chonchi,-42.6128,-73.8092,282.1,78,100,3.01,CL,1716997065
88,xichang,27.8964,102.2634,292.86,88,97,2.3,CN,1716997065
89,ushuaia,-54.8,-68.3,277.96,81,75,8.23,AR,1716997065
90,manokwari,-0.8667,134.0833,299.93,76,76,1.52,ID,1716997065
91,ust-nera,64.5667,143.2,286.37,42,59,2.31,RU,1716997066
92,tshabong,-26.05,22.45,292.91,26,0,2.96,BW,1716997066
93,ta`u,-14.2336,-169.5144,301.33,79,84,3.87,AS,1716997066
94,daru,-9.0763,143.2092,299.15,87,51,7.24,PG,1716997066
95,blackmans bay,-43.0167,147.3167,284.22,70,100,1.34,AU,1716997066
96,pisco,-13.7,-76.2167,291.18,82,75,2.57,PE,1716996842
97,wailua homesteads,22.0669,-159.378,296.59,85,100,7.2,US,1716997067
98,gamba,-2.65,10.0,300.36,84,62,4.36,GA,1716997067
99,whitehorse,60.7161,-135.0538,280.43,62,20,2.06,CA,1716997067
100,benguela,-12.5763,13.4055,300.33,70,11,2.1,AO,1716997067
101,ilulissat,69.2167,-51.1,273.16,69,75,3.6,GL,1716997067
102,gumla,23.05,84.55,309.18,17,97,3.2,IN,1716997068
103,port saint john's,-31.6229,29.5448,295.63,54,0,5.19,ZA,1716997068
104,island harbour,50.724,-1.2758,292.61,68,86,2.24,GB,1716997068
105,lebu,-37.6167,-73.65,285.4,83,100,2.36,CL,1716997068
106,beeville,28.4008,-97.7483,304.42,61,0,3.6,US,1716997068
107,avarua,-21.2078,-159.775,299.18,94,40,1.54,CK,1716997068
108,sechura,-5.5569,-80.8222,296.24,63,28,4.21,PE,1716997069
109,chaohu,31.6,117.8667,292.95,76,100,2.62,CN,1716997069
110,lesozavodsk,45.4794,133.4244,278.37,89,13,2.11,RU,1716997069
111,les avirons,-21.2418,55.3394,295.2,83,40,9.77,RE,1716997069
112,boca suno,-0.7167,-77.1333,295.92,99,100,1.17,EC,1716997069
113,olonkinbyen,70.9221,-8.7187,273.21,98,100,5.1,SJ,1716997069
114,novaya igirma,57.1334,103.9112,283.26,57,98,2.35,RU,1716997070
115,hermanus,-34.4187,19.2345,293.6,47,96,2.51,ZA,1716997070
116,newman,37.3138,-121.0208,294.28,53,11,1.79,US,1716997070
117,saint-joseph,-21.3667,55.6167,296.36,85,34,7.72,RE,1716997070
118,peace river,56.2501,-117.286,282.4,100,100,3.6,CA,1716996950
119,theunissen,-28.411,26.7011,285.46,48,0,1.11,ZA,1716997070
120,saipan,15.1355,145.701,300.54,78,40,4.63,MP,1716997071
121,bodri,23.1667,81.4333,308.72,20,100,1.48,IN,1716997071
122,vorgashor,67.5833,63.95,267.48,92,100,3.13,RU,1716997071
123,auki,-8.7676,160.7034,298.36,93,98,0.89,SB,1716997071
124,palembang,-2.9167,104.7458,302.2,84,20,2.06,ID,1716997071
125,albany,42.6001,-73.9662,295.14,58,21,0.89,US,1716996825
126,cabo san lucas,22.8909,-109.9124,304.05,34,0,0.0,MX,1716996927
127,minas de marcona,-15.2119,-75.1103,291.21,54,11,5.93,PE,1716997072
128,sandnessjoen,66.0217,12.6316,300.44,24,0,2.57,NO,1716997072
129,dudinka,69.4058,86.1778,271.3,95,100,4.92,RU,1716997072
130,hithadhoo,-0.6,73.0833,302.21,73,98,8.63,MV,1716997072
131,hamilton,39.1834,-84.5333,291.53,72,100,5.66,US,1716997073
132,tofol,5.3248,163.0078,301.63,81,100,7.96,FM,1716997073
133,arish,31.1316,33.7984,295.59,68,0,4.77,EG,1716997073
134,sinabang,2.4803,96.3801,300.46,88,73,2.19,ID,1716997073
135,edinburgh of the seven seas,-37.0676,-12.3116,285.76,66,31,5.56,SH,1716997073
136,vadso,70.0744,29.7487,280.64,93,75,4.63,NO,1716997073
137,zeya,53.75,127.2667,283.42,53,38,2.15,RU,1716997074
138,santa maria,-29.6842,-53.8069,288.76,77,75,1.54,BR,1716996795
139,cockburn town,21.4612,-71.1419,300.88,83,100,7.43,TC,1716997074
140,luderitz,-26.6481,15.1594,288.37,91,38,3.75,NA,1716997074
141,wanning,18.8003,110.3967,299.62,92,100,1.51,CN,1716997074
142,presov,49.1667,21.25,290.46,89,93,2.48,SK,1716997074
143,veraval,20.9,70.3667,302.53,81,25,8.29,IN,1716997075
144,xilin hot,43.9667,116.0333,288.1,37,27,6.24,CN,1716997075
145,kodiak,57.79,-152.4072,278.88,93,100,8.23,US,1716997075
146,tolanaro,-25.0319,46.9987,295.19,83,40,2.06,MG,1716997075
147,aasiaat,68.7098,-52.8699,272.39,87,100,5.1,GL,1716997075
148,san pedro pochutla,15.7333,-96.4667,300.99,42,53,2.85,MX,1716997075
149,zagora,30.3484,-5.8365,311.31,6,0,6.01,MA,1716997076
150,klaksvik,62.2266,-6.589,284.66,84,97,3.03,FO,1716997076
151,kirakira,-10.4544,161.9205,299.44,88,86,4.47,SB,1716997076
152,maba,24.6841,113.5984,298.7,21,95,0.76,CN,1716997076
153,san patricio,28.017,-97.5169,303.07,59,100,5.66,US,1716997076
154,constantia,44.1833,28.65,294.53,75,100,5.58,RO,1716997076
155,nishinoomote,30.7333,131.0,294.4,88,22,8.11,JP,1716997077
156,kirensk,57.7853,108.1119,288.13,70,100,1.34,RU,1716997077
157,kapuskasing,49.4169,-82.4331,279.2,56,20,2.06,CA,1716997077
158,mount gambier,-37.8333,140.7667,289.34,37,97,6.71,AU,1716997077
159,lubuklinggau,-3.3,102.8667,296.22,97,35,1.28,ID,1716997074
160,rongelap,11.1635,166.8941,300.81,79,100,6.22,MH,1716997078
161,manggar,-2.8833,108.2667,301.33,82,91,4.36,ID,1716997078
162,ugoofaaru,5.6667,73.0,301.64,83,100,10.45,MV,1716997078
163,klyuchi,52.2667,79.1667,279.45,77,100,2.33,RU,1716997078
164,k'olito,7.3167,38.0833,294.14,72,97,2.82,ET,1716997078
165,richards bay,-28.783,32.0377,294.73,77,0,5.2,ZA,1716997078
166,tiksi,71.6872,128.8694,279.72,85,98,2.39,RU,1716997079
167,khandyga,62.6667,135.6,286.39,52,40,1.3,RU,1716997079
168,gobabis,-22.45,18.9667,292.69,21,0,4.2,NA,1716997079
169,tabora,-5.0167,32.8,297.15,50,35,1.55,TZ,1716997079
170,prince rupert,54.3161,-130.3201,281.98,87,100,4.12,CA,1716997079
171,shingu,33.7333,135.9833,288.15,75,53,2.08,JP,1716997079
172,lompoc,34.6391,-120.4579,288.11,83,40,4.92,US,1716997080
173,college,64.8569,-147.8028,287.54,69,75,1.54,US,1716997003
174,kanniyakumari,8.0833,77.5667,300.68,83,100,9.68,IN,1716997080
175,askoy,60.4092,5.226,292.57,59,75,2.57,NO,1716997080
176,muromtsevo,56.3724,75.2418,273.02,65,36,2.23,RU,1716997080
177,vredendal,-31.6683,18.5012,293.34,48,4,2.69,ZA,1716997081
178,lander,42.833,-108.7307,293.14,43,0,3.09,US,1716996961
179,rio tinto,41.1826,-8.5581,304.59,68,20,4.63,PT,1716997081
180,am timan,11.0297,20.2827,307.77,31,92,5.85,TD,1716997081
181,nemuro,43.3236,145.575,278.58,87,54,3.79,JP,1716997081
182,rikaze,29.25,88.8833,289.49,31,49,3.22,CN,1716997081
183,morondava,-20.2833,44.2833,297.14,70,0,4.49,MG,1716997082
184,veinticinco de mayo,-35.4323,-60.1727,287.58,72,69,3.58,AR,1716997082
185,dhidhdhoo,6.8833,73.1,301.02,83,100,12.29,MV,1716996843
186,isafjordur,66.0755,-23.124,280.17,70,20,5.66,IS,1716997082
187,muynoq,43.7683,59.0214,291.16,45,0,4.72,UZ,1716997083
188,solrod strand,55.5328,12.2223,291.15,81,75,6.69,DK,1716997083
189,tvoroyri,61.5556,-6.8111,283.8,88,45,3.36,FO,1716997083
190,las heras,-46.5419,-68.9359,281.3,45,7,9.29,AR,1716996948
191,vernon,50.2581,-119.2691,284.98,55,34,2.24,CA,1716996940
192,lautoka,-17.6167,177.4667,296.07,83,100,3.09,FJ,1716997083
193,adrar,20.5022,-10.0711,312.43,10,73,5.23,MR,1716997084
194,puerto baquerizo moreno,-0.9,-89.6,298.7,73,40,6.17,EC,1716997084
195,illizi,26.4833,8.4667,311.04,13,91,9.49,DZ,1716997084
196,el fasher,13.6279,25.3494,311.52,6,75,2.84,SD,1716996972
197,alajarvi,63.0,23.8167,300.12,24,12,1.43,FI,1716997084
198,new norfolk,-42.7826,147.0587,284.87,59,100,1.44,AU,1716997085
199,tabas,33.5959,56.9244,307.18,11,0,7.84,IR,1716997085
200,iron river,46.0927,-88.6423,288.57,33,53,2.79,US,1716997085
201,remire-montjoly,4.9167,-52.2667,302.17,79,75,5.14,GF,1716997085
202,fale old settlement,-9.3852,-171.2468,302.54,71,0,4.8,TK,1716997085
203,ujae,8.9322,165.7642,301.37,80,95,6.33,MH,1716997085
204,turkmenbasy,40.0222,52.9552,300.58,29,0,5.14,TM,1716997086
205,solnechnyy,50.7214,136.6319,277.06,98,100,2.19,RU,1716997086
206,callao,-12.0667,-77.15,297.44,82,100,2.57,PE,1716997086
207,margaret river,-33.95,115.0667,287.9,60,91,8.29,AU,1716997086
208,zheleznogorsk-ilimskiy,56.5768,104.1217,283.35,68,99,2.24,RU,1716997087
209,stanley,54.868,-1.6985,290.92,65,20,5.66,GB,1716996869
210,tadine,-21.55,167.8833,293.91,63,100,6.69,NC,1716997087
211,bishkek,42.87,74.59,290.26,71,100,4.21,KG,1716997007
212,crane,31.3974,-102.3501,299.87,54,40,5.66,US,1716997087
213,bredasdorp,-34.5322,20.0403,295.06,38,96,1.83,ZA,1716997088
214,mason,39.3601,-84.3099,291.4,78,100,5.14,US,1716997088
215,romilly-sur-seine,48.5108,3.7263,289.36,97,100,5.65,FR,1716997088
216,tynda,55.1667,124.7167,280.27,77,60,0.99,RU,1716997088
217,tomatlan,19.9333,-105.25,306.54,32,2,2.11,MX,1716997088
218,tura,25.5198,90.2201,298.0,98,54,2.31,IN,1716997088
219,alaghsas,17.0187,8.0168,316.09,15,40,7.2,NE,1716997089
220,arraial do cabo,-22.9661,-42.0278,296.07,68,75,5.66,BR,1716997089
221,gond-pontouvre,45.6833,0.1667,289.96,87,100,4.12,FR,1716997089
222,par naogaon,24.8029,88.9508,304.9,77,95,5.59,BD,1716997089
223,tokar,18.4254,37.729,305.46,42,24,5.89,SD,1716997089
224,igarka,67.4667,86.5833,276.49,87,76,4.02,RU,1716997089
225,polyarnyy,69.1989,33.4478,278.76,89,98,3.62,RU,1716997090
226,hami,42.8,93.45,297.91,14,8,8.73,CN,1716997090
227,nyakahanga,-1.6033,31.1414,292.26,72,97,1.02,TZ,1716997090
228,nuku'alofa,-21.1333,-175.2,296.34,73,75,2.06,TO,1716997090
229,tual,-5.6667,132.75,300.88,85,46,6.93,ID,1716997090
230,tazovsky,67.4667,78.7,270.32,93,100,4.89,RU,1716997091
231,cole harbour,44.6724,-63.4751,293.81,79,20,3.09,CA,1716997066
232,kittila,67.6647,24.8936,295.71,56,0,3.09,FI,1716997091
233,colombia,20.9881,-77.4297,307.27,45,0,2.5,CU,1716997091
234,buta,2.7858,24.73,296.22,96,89,1.33,CD,1716997092
235,deir ez-zor,35.3359,40.1408,307.5,20,19,3.1,SY,1716997092
236,i-n-salah,27.1935,2.4607,313.62,7,100,6.27,DZ,1716997092
237,torghay,49.6339,63.4981,292.64,40,47,3.89,KZ,1716997092
238,vila franca do campo,37.7167,-25.4333,294.38,99,80,6.43,PT,1716997093
239,elliot,-31.3333,27.85,286.16,35,0,3.09,ZA,1716997093
240,coquimbo,-29.9533,-71.3436,284.0,100,75,1.54,CL,1716996913
241,beykonak,36.3257,30.303,295.55,71,1,2.64,TR,1716997093
242,ulverstone,-41.15,146.1667,285.12,84,99,0.99,AU,1716997093
243,lisakovsk,52.5369,62.4936,288.23,85,89,1.53,KZ,1716997094
244,kodinsk,58.6881,99.1844,281.73,64,23,2.88,RU,1716997094
245,moose jaw,50.4001,-105.5344,292.3,42,75,7.72,CA,1716997094
246,keflavik,64.0049,-22.5624,282.39,71,75,7.2,IS,1716997094
247,belyy yar,53.6039,91.3903,287.09,58,0,3.0,RU,1716997094
248,cannonvale,-20.2833,148.7,293.81,77,6,7.0,AU,1716997094
249,krutaya gorka,55.3649,73.2231,279.97,57,63,1.96,RU,1716997095
250,inhambane,-23.865,35.3833,297.14,78,40,2.57,MZ,1716997095
251,az zawiyah,32.0963,35.0398,298.18,63,20,5.14,PS,1716997095
252,port augusta,-32.5,137.7667,293.22,37,100,11.21,AU,1716997095
253,nogales,31.3086,-110.9422,298.71,17,0,0.0,MX,1716997095
254,riti,7.9167,9.6167,307.45,49,97,3.46,NG,1716997095
255,petropavlovsk-kamchatsky,53.0452,158.6483,277.47,75,100,2.0,RU,1716997096
256,woolgoolga,-30.1106,153.2007,286.51,89,2,3.01,AU,1716997096
257,uturoa,-16.7333,-151.4333,300.72,72,6,6.67,PF,1716997096
258,anna regina,7.2644,-58.5077,302.18,71,100,3.23,GY,1716997096
259,gadzhiyevo,69.2551,33.3362,280.04,85,97,3.73,RU,1716997096
260,mont-joli,48.5839,-68.1921,280.87,87,100,7.2,CA,1716997097
261,sitka,57.0531,-135.33,281.09,87,75,2.57,US,1716997105
262,mahibadhoo,3.7833,72.9667,301.59,82,99,10.04,MV,1716997105
263,gardnerville ranchos,38.8882,-119.7413,291.06,42,0,1.79,US,1716997106
264,tabou,4.423,-7.3528,302.2,70,98,4.16,CI,1716997106
265,fortuna,40.5982,-124.1573,288.11,87,0,5.66,US,1716997082
266,kiama,-34.6833,150.8667,288.47,81,1,2.21,AU,1716997106
267,l'govskiy,51.6307,35.2775,293.07,68,98,2.92,RU,1716997106
268,juan griego,11.0817,-63.9655,304.29,59,45,5.36,VE,1716997106
269,susanville,40.4163,-120.653,288.05,52,9,1.34,US,1716997107
270,qaqortoq,60.7167,-46.0333,276.15,97,100,1.59,GL,1716997107
271,harstad,68.799,16.5293,294.81,82,76,1.12,NO,1716997107
272,aceuchal,38.6712,-6.4963,308.42,15,6,2.76,ES,1716997107
273,tilcara,-23.5776,-65.3509,289.48,12,14,0.55,AR,1716997108
274,rio gallegos,-51.6226,-69.2181,278.18,75,20,15.43,AR,1716996857
275,bikenibeu village,1.3673,173.1241,301.13,83,40,3.6,KI,1716997108
276,dwarka,22.2394,68.9678,302.15,80,56,10.19,IN,1716997108
277,antonio enes,-16.2325,39.9086,297.01,63,0,3.37,MZ,1716997108
278,nieuw amsterdam,5.8833,-55.0833,305.16,55,75,2.57,SR,1716997108
279,puerto deseado,-47.7503,-65.8938,282.8,39,2,11.1,AR,1716997109
280,babruysk,53.15,29.2333,293.92,69,53,2.38,BY,1716997109
281,majenang,-7.2975,108.7642,296.72,99,40,0.7,ID,1716997109
282,saskatoon,52.1168,-106.6345,290.46,35,75,7.72,CA,1716996836
283,mozarlandia,-14.7447,-50.5706,306.43,34,0,0.82,BR,1716997109
284,al bawiti,28.3492,28.8659,303.0,18,0,5.34,EG,1716997110
285,tsawwassen,49.018,-123.0817,283.07,99,92,2.9,CA,1716997110
286,mount pearl,47.5166,-52.7813,284.79,96,100,11.32,CA,1716996836
287,akureyri,65.6835,-18.0878,283.11,71,75,4.63,IS,1716997110
288,machina,13.1364,10.0492,314.31,17,45,0.98,NG,1716997110
289,broken hill,-31.95,141.4333,288.92,51,17,7.7,AU,1716997111
290,chinsali,-10.5414,32.0816,290.9,62,64,3.02,ZM,1716997111
291,antofagasta,-23.65,-70.4,288.75,75,93,3.98,CL,1716996980
292,taber,49.8167,-112.1518,288.15,47,80,8.23,CA,1716997111
293,shahr-e babak,30.1165,55.1186,302.68,13,21,8.56,IR,1716997111
294,viveiro,43.6623,-7.5934,291.78,76,48,4.83,ES,1716997112
295,moussoro,13.6408,16.4901,315.56,11,47,3.37,TD,1716997112
296,aldan,58.6031,125.3894,281.82,69,9,2.31,RU,1716997112
297,san fernando,15.0286,120.6898,300.0,90,100,2.1,PH,1716997112
298,sorsk,54.0033,90.2467,281.0,80,100,5.46,RU,1716997112
299,mezhdurechenskiy,59.6,65.9333,275.08,46,90,1.57,RU,1716997113
300,vorkuta,67.5,64.0,267.65,92,100,7.15,RU,1716997113
301,pujehun,7.3581,-11.7208,303.85,68,78,3.25,SL,1716997113
302,kapa'a,22.0752,-159.319,297.33,85,100,7.2,US,1716997113
303,betio village,1.358,172.9211,301.17,73,7,6.67,KI,1716997113
304,ancud,-41.8697,-73.8203,283.42,77,100,5.61,CL,1716997093
305,sao gabriel da cachoeira,-0.1303,-67.0892,299.04,83,40,2.06,BR,1716997114
306,kavaratti,10.5669,72.642,301.39,85,100,9.86,IN,1716997114
307,newcastle,-32.9272,151.7765,286.92,93,0,3.0,AU,1716997075
308,deder,9.3167,41.45,292.09,34,80,0.23,ET,1716997114
309,arno,60.1167,18.6333,292.74,52,79,4.95,SE,1716997115
310,rapar,23.5667,70.6333,303.15,68,3,10.86,IN,1716997115
311,meadow lake,34.8014,-106.5436,295.46,50,87,0.82,US,1716997115
312,nelspruit,-25.4745,30.9703,293.31,68,0,3.09,ZA,1716997115
313,mogocha,53.7333,119.7667,279.6,75,52,1.24,RU,1716997115
314,kuqa,41.7278,82.9364,295.71,28,100,5.55,CN,1716997115
315,lisala,2.15,21.5167,302.42,58,92,1.15,CD,1716997116
316,gustavsberg,59.3268,18.3898,294.47,75,81,5.24,SE,1716997116
317,carnarvon,-24.8667,113.6333,292.48,53,0,8.03,AU,1716997116
318,san antonio de pale,-1.4014,5.6325,299.99,85,93,4.78,GQ,1716997116
319,acapulco de juarez,16.8634,-99.8901,303.05,70,75,2.57,MX,1716997116
320,isangel,-19.55,169.2667,294.71,65,99,5.75,VU,1716997116
321,port moresby,-9.4431,147.1797,297.63,86,28,3.96,PG,1716997117
322,pavilosta,56.8879,21.1859,292.1,81,36,2.29,LV,1716997117
323,lionel town,17.8101,-77.2406,306.09,53,86,5.75,JM,1716997117
324,arteche,12.2645,125.4048,299.65,91,100,3.25,PH,1716997118
325,paulden,34.8856,-112.4682,299.11,11,16,1.44,US,1716997118
326,tambacounda,13.7539,-13.7586,308.18,46,0,4.12,SN,1716997118
327,lewisburg,35.4492,-86.7889,298.97,54,0,2.57,US,1716996924
328,lugazi,0.3772,32.9197,295.6,69,99,1.62,UG,1716997118
329,kununurra,-15.7667,128.7333,296.14,83,1,1.54,AU,1716997118
330,happy valley-goose bay,53.3168,-60.3315,278.32,93,100,7.2,CA,1716997119
331,burla,21.5,83.8667,306.92,45,100,2.9,IN,1716997119
332,eyl,7.9803,49.8164,301.34,73,32,11.49,SO,1716997119
333,kurtamysh,54.9103,64.4319,285.13,67,96,2.68,RU,1716997119
334,lethem,3.3803,-59.7968,301.18,78,40,5.14,GY,1716997119
335,rio grande,-32.035,-52.0986,289.21,71,21,3.35,BR,1716997119
336,nizhnesortymskiy,62.4397,71.7603,271.5,77,100,8.7,RU,1716997120
337,nadi,-17.8,177.4167,296.15,83,100,3.09,FJ,1716997120
338,kamyshevatskaya,46.4132,37.9563,291.11,88,85,4.65,RU,1716997120
339,tamandare,-8.7597,-35.1047,301.32,72,44,3.23,BR,1716997120
340,amungan,15.3652,119.9582,299.99,92,100,4.94,PH,1716997120
341,vallenar,-28.5708,-70.7581,296.79,20,97,1.48,CL,1716997120
342,chui,-33.6971,-53.4616,289.86,73,18,0.87,UY,1716996866
343,kupang,-10.1667,123.5833,301.47,94,20,1.03,ID,1716996863
344,puerto aysen,-45.4,-72.7,278.49,99,100,2.71,CL,1716996887
345,yarmouth,41.7057,-70.2286,298.23,61,0,2.24,US,1716997121
346,salpazari,40.9411,39.1956,289.76,89,56,1.38,TR,1716997121
347,port blair,11.6667,92.75,301.17,89,75,1.03,IN,1716997121
348,sullivan,36.5168,-82.5332,296.17,62,40,5.66,US,1716997017
349,yermentau,51.6214,73.1069,282.65,94,100,1.68,KZ,1716997122
350,baruun-urt,46.6806,113.2792,281.93,89,100,6.19,MN,1716997122
351,rolesville,35.9232,-78.4575,301.43,52,0,0.89,US,1716997122
352,ostroleka,53.0862,21.5757,292.58,76,94,1.08,PL,1716997123
353,necochea,-38.5473,-58.7368,289.37,56,54,9.31,AR,1716996957
354,lihue,21.9789,-159.3672,296.92,82,100,7.2,US,1716997123
355,medak,18.0333,78.2667,311.54,19,100,2.31,IN,1716997123
356,kandukur,15.2167,79.9167,308.65,41,83,5.66,IN,1716997123
357,nova sintra,14.8667,-24.7167,297.44,78,40,5.27,CV,1716997124
358,yemetsk,63.4721,41.7941,287.38,54,58,2.48,RU,1716997124
359,saveh,35.0213,50.3566,303.99,14,0,4.33,IR,1716997124
360,batang,-6.4846,110.7083,300.2,80,23,2.54,ID,1716997124
361,sandikli,38.4647,30.2695,286.5,78,99,4.84,TR,1716997124
362,perth,-31.9333,115.8333,288.63,87,0,3.58,AU,1716997058
363,carbonear,47.7332,-53.2148,285.5,94,100,8.03,CA,1716997125
364,sheridan,44.8333,-106.9173,300.54,59,0,0.0,US,1716997125
365,freetown,8.484,-13.2299,302.99,70,75,4.12,SL,1716997125
366,shushtar,32.0455,48.8567,313.96,6,0,4.01,IR,1716997125
367,uporovo,56.3109,66.2693,279.8,50,100,2.2,RU,1716997125
368,nar'yan-mar,67.6713,53.087,271.54,77,79,5.36,RU,1716997126
369,kavieng,-2.5744,150.7967,299.98,82,98,1.41,PG,1716997126
370,islamkot,24.6997,70.177,302.52,76,0,10.02,PK,1716997126
371,hobyo,5.3505,48.5268,300.5,74,68,13.03,SO,1716997126
372,hede,33.7681,120.2517,292.27,72,100,4.4,CN,1716997126
373,maceio,-9.6658,-35.7353,300.84,89,75,2.57,BR,1716996981
374,uzundere,40.5301,41.5584,295.01,51,62,2.87,TR,1716997127
375,pont rouge,48.8833,-72.0825,286.31,32,29,6.55,CA,1716997127
376,calintaan,12.5667,120.9333,300.1,86,100,2.9,PH,1716997127
377,mugia,43.1041,-9.2179,289.77,79,17,4.14,ES,1716997127
378,christchurch,-43.5333,172.6333,278.12,86,31,0.0,NZ,1716996929
379,panjakent,39.4952,67.6093,291.11,57,8,0.77,TJ,1716997128
380,natal,-5.795,-35.2094,302.51,74,75,4.63,BR,1716996867
381,ambovombe,-25.1667,46.0833,294.14,80,5,6.99,MG,1716997029
382,viedma,-40.8135,-62.9967,289.36,38,24,6.67,AR,1716996962
383,mineiros,-17.5694,-52.5511,296.47,47,0,2.45,BR,1716997129
384,fauske,67.2588,15.3918,300.17,34,27,1.72,NO,1716997129
385,kailua-kona,19.6406,-155.9956,297.13,73,0,1.54,US,1716997129
386,ifaki,7.7894,5.2485,302.99,57,100,3.95,NG,1716997129
387,quellon,-43.1167,-73.6167,282.66,79,100,5.37,CL,1716997130
388,hasaki,35.7333,140.8333,288.37,82,2,2.56,JP,1716997130
389,holualoa,19.6228,-155.9522,295.06,73,0,1.54,US,1716997130
390,ar ruways,24.1103,52.7306,304.93,51,2,5.27,AE,1716997130
391,tommot,58.9564,126.2925,282.47,78,7,1.33,RU,1716997130
392,jacmel,18.2342,-72.5347,303.89,67,88,2.96,HT,1716997130
393,eau claire,44.8114,-91.4985,291.57,62,0,1.79,US,1716997056
394,greenville,35.6127,-77.3663,300.45,52,75,1.54,US,1716996855
395,alofi,-19.0595,-169.9187,298.09,100,75,3.09,NU,1716997131
396,lerwick,60.1545,-1.1494,287.15,79,78,4.21,GB,1716996863
397,pangai,-19.8,-174.35,296.48,79,100,7.89,TO,1716997040
398,fada,9.5667,8.3,295.76,90,69,3.02,NG,1716997131
399,tromso,69.6496,18.957,288.16,67,0,8.75,NO,1716997132
400,port shepstone,-30.7414,30.455,293.53,68,0,5.01,ZA,1716997132
401,westhausen,48.8833,10.1833,289.57,90,100,2.29,DE,1716997132
402,haiku-pauwela,20.9219,-156.3051,295.95,81,0,3.09,US,1716997132
403,sarangani,5.4033,125.4636,302.49,74,79,3.49,PH,1716997132
404,kismayo,-0.3582,42.5454,299.47,79,46,6.55,SO,1716997133
405,saint-philippe,-21.3585,55.7679,296.92,86,62,7.5,RE,1716997133
406,sosnogorsk,63.6023,53.8817,279.01,25,2,2.24,RU,1716997133
407,sarkand,45.41,79.9186,285.12,64,20,2.06,KZ,1716997133
408,carletonville,-26.3609,27.3977,286.56,28,0,0.95,ZA,1716997133
409,porto novo,6.4965,2.6036,304.05,66,95,4.64,BJ,1716997133
410,bridge city,30.0208,-93.8457,301.15,76,40,3.6,US,1716997134
411,salalah,17.0151,54.0924,305.2,79,75,4.63,OM,1716997134
412,la ronge,55.1001,-105.2842,291.27,48,75,6.17,CA,1716997117
413,yongfeng,27.4283,112.1834,294.01,94,100,2.87,CN,1716997134
414,maydanshakhr,34.3956,68.8662,289.82,32,2,2.05,AF,1716997134
415,jalai nur,49.45,117.7,284.77,57,100,0.62,CN,1716997134
416,uruzgan,32.8333,66.0,296.96,20,0,3.02,AF,1716997135
417,sale,34.0389,-6.8166,306.84,57,40,4.12,MA,1716997135
418,weno,7.4515,151.8468,301.12,94,75,1.54,FM,1716997135
419,swanage,50.6092,-1.9626,292.56,81,65,4.95,GB,1716997135
420,san andres,12.5847,-81.7006,302.16,84,40,5.66,CO,1716997135
421,beboto,8.2668,16.939,305.26,41,100,1.0,TD,1716997135
422,williston,48.147,-103.618,293.17,52,51,2.68,US,1716997109
423,yaren,-0.5472,166.916,301.64,71,100,6.73,NR,1716997136
424,mil'kovo,55.6078,37.7956,301.37,63,49,3.4,RU,1716997136
425,berdigestyakh,62.0989,126.6992,285.54,69,91,1.0,RU,1716997136
426,berberati,4.2612,15.7922,305.24,46,96,2.17,CF,1716997136
427,pinarbasi,38.7229,36.3931,291.87,47,23,1.7,TR,1716997136
428,namdrik,5.5994,168.1028,301.14,80,58,4.85,MH,1716997137
429,tsengel,49.4783,100.8894,282.03,36,58,3.58,MN,1716997137
430,sikonge,-5.6333,32.7667,296.7,51,44,1.89,TZ,1716997137
431,awjilah,29.1081,21.2869,304.87,13,1,4.45,LY,1716997137
432,palikir - national government center,6.9248,158.1611,300.56,83,100,2.06,FM,1716997137
433,hadithah,34.1397,42.3781,309.76,17,22,3.84,IQ,1716997138
434,hauterive,46.0901,3.4459,291.57,87,100,0.42,FR,1716997138
435,sao tome,0.3365,6.7273,301.12,79,68,3.16,ST,1716997084
436,taro,-8.3862,115.28,296.15,100,20,0.36,ID,1716997138
437,qulsary,46.9531,54.0198,298.21,16,0,3.3,KZ,1716997139
438,portland,45.5234,-122.6762,286.58,86,75,2.06,US,1716996667
439,heishan,41.6892,122.1128,293.7,46,100,8.64,CN,1716997139
440,fort mcmurray,56.7268,-111.381,289.88,72,75,3.6,CA,1716996982
441,kerikeri,-35.2268,173.9474,285.88,79,33,4.02,NZ,1716997139
442,turbat,26.0023,63.044,312.61,17,6,3.82,PK,1716997140
443,kozmin wielkopolski,51.8271,17.4539,293.42,65,92,1.41,PL,1716996993
444,egilsstadir,65.2653,-14.3948,282.1,76,75,1.54,IS,1716997140
445,angol,-37.8,-72.7167,283.89,95,100,1.05,CL,1716997140
446,inverell,-29.7833,151.1167,283.79,84,2,0.89,AU,1716997140
447,castillos,-34.1667,-53.8333,289.75,66,16,0.36,UY,1716997140
448,mount isa,-20.7333,139.5,287.02,88,0,0.0,AU,1716997141
449,acarau,-2.8856,-40.12,301.79,77,56,4.94,BR,1716997141
450,greymouth,-42.4667,171.2,278.14,92,41,2.2,NZ,1716997141
451,benfeld,48.3706,7.5937,290.34,82,75,5.14,FR,1716997142
452,barstow,34.8986,-117.0228,296.02,26,0,5.79,US,1716997142
453,thung song,8.1645,99.6804,299.5,90,67,1.31,TH,1716997142
454,medicine hat,50.0501,-110.6683,287.99,74,100,5.14,CA,1716996986
455,choyr,46.3611,108.3611,279.82,79,51,7.75,MN,1716997143
456,waingapu,-9.6567,120.2641,298.28,82,38,1.84,ID,1716996952
457,zhumysker,49.3333,49.4,297.93,28,1,3.95,KZ,1716997143
458,autazes,-3.5797,-59.1306,303.43,59,78,1.65,BR,1716997143
459,borogontsy,62.6683,131.1683,288.13,67,71,1.66,RU,1716997143
460,kolonia,50.9333,6.95,292.07,77,78,2.24,DE,1716996913
461,lyantor,61.6195,72.1555,272.35,73,100,9.49,RU,1716997144
462,chardara,41.2547,67.9692,296.26,30,0,5.73,KZ,1716997144
463,rajpipla,21.8667,73.5,303.53,65,37,9.31,IN,1716997144
464,andergrove,-21.0833,149.1833,291.84,80,2,6.64,AU,1716997144
465,st. paul,44.9444,-93.0933,292.75,60,0,1.54,US,1716997032
466,mangrol,21.1167,70.1167,302.82,77,71,8.25,IN,1716997145
467,nuuk,64.1835,-51.7216,273.49,86,100,3.09,GL,1716997145
468,tinogasta,-28.0632,-67.5649,294.56,13,14,1.9,AR,1716997145
469,aberdeen,57.1437,-2.0981,289.01,83,75,2.57,GB,1716997145
470,bamboo flat,11.7,92.7167,301.2,89,75,1.03,IN,1716997145
471,puerto san jose,13.9256,-90.8244,303.88,63,59,1.11,GT,1716997146
472,monticello,45.3055,-93.7941,292.1,64,0,2.06,US,1716996856
473,svay rieng,11.0879,105.7993,303.52,68,100,2.49,KH,1716997146
474,conception bay south,47.4999,-52.9981,285.12,95,100,8.82,CA,1716997069
475,lodeynoye pole,60.726,33.5531,297.29,44,56,1.34,RU,1716997146
476,sao joao dos inhamuns,-6.0,-40.2833,306.41,36,60,3.78,BR,1716997147
477,ukata,10.8312,5.8249,310.51,32,86,4.08,NG,1716997147
478,gbarnga,6.9956,-9.4722,301.76,75,83,1.14,LR,1716997147
479,broome,42.2506,-75.833,293.09,71,100,3.6,US,1716997147
480,ellsworth,44.5434,-68.4195,294.26,64,40,3.6,US,1716997147
481,mbeni,-11.5014,43.3775,297.26,70,3,6.32,KM,1716997148
482,ocean city,39.2776,-74.5746,296.58,60,0,0.89,US,1716996873
483,tweed heads,-28.1817,153.547,290.93,97,39,1.54,AU,1716997148
484,banamba,13.55,-7.45,314.13,18,75,5.03,ML,1716997148
485,zhangye,38.9342,100.4517,291.41,18,84,3.09,CN,1716997148
486,kill devil hills,36.0307,-75.676,300.15,75,100,4.12,US,1716997149
487,tazacorte,28.629,-17.9293,296.01,66,75,4.12,ES,1716997149
488,cam ranh,11.9214,109.1591,302.13,79,40,1.54,VN,1716997149
489,alta,69.9689,23.2717,289.74,63,0,5.66,NO,1716997149
490,teknaf,20.8624,92.3058,302.09,87,99,4.43,BD,1716997149
491,aktau,43.65,51.2,297.47,55,5,2.65,KZ,1716997150
492,fort bragg,35.139,-79.006,301.43,50,0,3.09,US,1716996904
493,as sulayyil,20.4607,45.5779,315.29,9,40,3.48,SA,1716997150
494,nefta,33.8731,7.8777,309.29,19,3,6.42,TN,1716997150
495,gizo,-8.103,156.8419,299.61,86,100,2.37,SB,1716997150
496,fort st. john,56.2499,-120.8529,281.09,76,100,5.66,CA,1716997025
497,velyka oleksandrivka,47.3197,33.3037,290.4,75,100,3.35,UA,1716997151
498,dalandzadgad,43.5708,104.425,290.55,20,10,3.37,MN,1716997151
499,guane,22.2025,-84.0875,308.72,39,0,3.49,CU,1716997151
500,mendefera,14.8872,38.8153,299.37,16,80,7.48,ER,1716997151
501,mandan,46.8267,-100.8896,291.38,65,0,10.8,US,1716997151
502,coxen hole,16.3244,-86.5366,303.75,66,0,10.29,HN,1716997151
503,dingli,35.8614,14.3822,298.24,57,20,2.57,MT,1716997152
504,cafayate,-26.073,-65.9761,293.07,18,92,1.66,AR,1716997152
505,colonia,50.9333,6.95,292.01,77,78,2.24,DE,1716997083
506,nahiyat ash shinafiyah,31.5874,44.6602,313.53,9,0,2.02,IQ,1716997152
507,jiwani,25.05,61.7417,304.43,75,10,5.77,PK,1716997152
508,katsuura,35.1333,140.3,291.95,88,71,2.8,JP,1716997153
509,campbell river,50.0163,-125.2446,282.37,100,75,2.57,CA,1716997153
510,pestravka,52.405,49.9583,293.45,54,0,3.13,RU,1716997153
511,antrim,54.6667,-6.25,289.9,72,20,6.69,GB,1716997153
512,bonthe,7.5264,-12.505,303.08,69,83,4.57,SL,1716997153
513,hashtpar,37.8008,48.9037,294.14,85,2,0.7,IR,1716997153
514,luba,3.4568,8.5547,303.09,86,80,4.98,GQ,1716997154
515,kargasok,59.0556,80.8572,274.8,97,96,7.15,RU,1716997154
516,bel ombre,-4.6167,55.4167,301.06,74,20,2.06,SC,1716997154
517,leninskoye,41.7589,69.3864,289.85,55,0,3.06,KZ,1716997154
518,magog,45.2668,-72.1491,288.04,62,100,4.63,CA,1716997154
519,cartagena,10.3997,-75.5144,303.94,79,40,2.06,CO,1716996964
520,baardheere,2.3446,42.2764,301.67,52,100,3.46,SO,1716997155
521,boguchany,58.3814,97.4531,284.74,55,34,4.02,RU,1716997155
522,kidal,18.4411,1.4078,317.14,5,13,3.01,ML,1716997155
523,coahuayana de hidalgo,18.7,-103.6583,305.42,43,3,2.26,MX,1716997155
524,imbituba,-28.24,-48.6703,292.51,63,0,7.61,BR,1716997155
525,ouadda,8.0777,22.4007,306.15,33,78,0.66,CF,1716997156
526,mkushi,-13.6202,29.3939,291.15,43,4,3.86,ZM,1716997156
527,mersa matruh,31.3525,27.2453,295.55,52,0,4.9,EG,1716997156
528,sur,22.5667,59.5289,309.4,38,0,2.23,OM,1716997156
529,merizo village,13.2658,144.6691,301.0,87,100,4.24,GU,1716997156
530,puerto santa,-8.9906,-78.6456,292.61,79,78,4.01,PE,1716997157
531,siping,43.1633,124.3686,287.36,86,100,4.4,CN,1716997157
532,pangkalanbuun,-2.6833,111.6167,297.76,99,100,0.83,ID,1716997157
533,gobernador galvez,-33.0302,-60.6405,288.25,54,40,5.14,AR,1716997157
534,floro,61.5996,5.0328,290.19,58,20,4.12,NO,1716997157
535,bubaque,11.2833,-15.8333,301.16,69,88,2.8,GW,1716997158
536,huarmey,-10.0681,-78.1522,293.94,71,50,3.11,PE,1716997158
537,toledo,39.8333,-4.0,307.77,18,10,3.32,ES,1716997139
538,saveni,47.95,26.8667,292.49,86,100,4.29,RO,1716997158
539,haapajarvi,63.75,25.3333,296.18,25,10,2.01,FI,1716997158
540,naryshkino,52.9678,35.7268,296.03,71,37,2.69,RU,1716997158
541,aktobe,50.2797,57.2072,296.2,27,0,5.0,KZ,1716997159
542,santo antonio do ica,-3.1022,-67.9397,301.36,59,66,2.35,BR,1716997159
543,madhoganj,27.1167,80.15,314.24,9,5,1.41,IN,1716997159
544,sao paulo de olivenca,-3.3783,-68.8725,301.7,56,55,2.27,BR,1716997159
545,qui nhon,13.7667,109.2333,301.31,76,100,2.59,VN,1716997159
546,robore,-18.3333,-59.75,294.2,46,12,0.0,BO,1716997160
547,nabire,-3.3667,135.4833,298.05,93,63,1.16,ID,1716997160
548,laguna,38.421,-121.4238,296.09,55,0,2.57,US,1716997160
549,salinopolis,-0.6136,-47.3561,303.34,67,7,4.96,BR,1716997160
550,kitimat,54.0524,-128.6534,282.97,79,100,4.02,CA,1716997160
551,kirkuk,35.4681,44.3922,307.4,18,16,4.14,IQ,1716997160
552,umba,66.6871,34.3429,278.74,72,90,2.59,RU,1716997161
553,kone,-21.0595,164.8658,290.42,78,83,1.93,NC,1716997161
554,muli,2.9167,73.5667,301.64,82,100,9.1,MV,1716997161
555,mahdia,35.5047,11.0622,299.12,57,78,6.7,TN,1716997161
556,lae,-6.7221,146.9847,296.02,91,69,2.14,PG,1716997161
557,sheregesh,52.9209,87.9869,282.01,97,100,3.17,RU,1716997120
558,luganville,-15.5333,167.1667,296.96,75,87,4.83,VU,1716997162
559,geraldton,-28.7667,114.6,286.38,94,100,5.14,AU,1716997162
560,charters towers,-20.1,146.2667,289.19,92,56,4.0,AU,1716997162
561,chadan,51.2833,91.5833,284.27,33,6,2.85,RU,1716997162
562,decin,50.7822,14.2148,296.52,68,89,1.95,CZ,1716997163
563,north bend,43.4065,-124.2243,288.14,87,75,3.09,US,1716997001
564,guerrero negro,27.9769,-114.0611,290.66,70,95,7.32,MX,1716997130
565,neiafu,-18.65,-173.9833,298.53,94,75,3.6,TO,1716997163
566,nagqu,31.5,92.0,281.22,74,100,3.79,CN,1716997163
567,ciudad lazaro cardenas,17.9583,-102.2,304.87,48,4,1.48,MX,1716997049
568,plastun,44.7561,136.2939,278.39,95,54,2.32,RU,1716997164
569,san marcos,33.1434,-117.1661,291.37,85,100,0.89,US,1716997062
570,tsiombe,-25.3,45.4833,294.37,79,13,5.92,MG,1716997164
571,labytnangi,66.6572,66.4183,271.69,70,100,4.78,RU,1716997164
572,allariz,42.1904,-7.8018,301.39,53,44,3.38,ES,1716997165
573,bunia,1.5667,30.25,297.11,52,99,1.18,CD,1716997165
574,kolonia town,6.964,158.206,301.15,83,100,2.06,FM,1716997165
575,cheremushki,52.8356,91.3944,283.17,87,97,0.88,RU,1716997165
576,gao,16.6362,1.637,317.89,6,3,3.86,ML,1716997165
577,bolondron,22.7633,-81.4469,306.26,32,0,2.75,CU,1716997165
578,frontera,26.9333,-101.45,302.53,51,0,9.26,MX,1716997166
